State Name,City Name,11/11/2023 0:00,11/11/2023 1:00,11/11/2023 2:00,11/11/2023 3:00,11/11/2023 4:00,11/11/2023 5:00,11/11/2023 6:00,11/11/2023 7:00,11/11/2023 8:00,11/11/2023 9:00,11/11/2023 10:00,11/11/2023 11:00,11/11/2023 12:00,11/11/2023 13:00,11/11/2023 14:00,11/11/2023 15:00,11/11/2023 16:00,11/11/2023 17:00,11/11/2023 18:00,11/11/2023 19:00,11/11/2023 20:00,11/11/2023 21:00,11/11/2023 22:00,11/11/2023 23:00,11/12/2023 0:00,11/12/2023 1:00,11/12/2023 2:00,11/12/2023 3:00,11/12/2023 4:00,11/12/2023 5:00,11/12/2023 6:00,11/12/2023 7:00,11/12/2023 8:00,11/12/2023 9:00,11/12/2023 10:00,11/12/2023 11:00,11/12/2023 12:00,11/12/2023 13:00,11/12/2023 14:00,11/12/2023 15:00,11/12/2023 16:00,11/12/2023 17:00,11/12/2023 18:00,11/12/2023 19:00,11/12/2023 20:00,11/12/2023 21:00,11/12/2023 22:00,11/12/2023 23:00,Latitude,Longitude
 Florida,Key West,Mostly Cloudy,Heavy Rain,Cloudy,Cloudy,Fair,Mostly Cloudy,Partly Cloudy,Fair,Fair,Fair,Fair,Fair,Fair,Fair,Fair,Fair,Fair,Fair,Fair,Fair,Fair,Fair,Fair,Fair,Fair,Fair,Fair,Mostly Cloudy,Fair,Fair,Fair,Mostly Cloudy,Fair,Mostly Cloudy,Mostly Cloudy,Mostly Cloudy,Mostly Cloudy,Fair,Partly Cloudy,Partly Cloudy,Fair,Fair,Fair,Fair,Fair,Fair,Fair,Fair,24.5637,81.7768
 Florida,Miami,Cloudy,Mostly Cloudy,Mostly Cloudy,Cloudy,Mostly Cloudy,Mostly Cloudy,Partly Cloudy,Partly Cloudy,Mostly Cloudy,Mostly Cloudy,Partly Cloudy,Fair,Partly Cloudy,Partly Cloudy,Partly Cloudy,Partly Cloudy,Partly Cloudy,Partly Cloudy,Partly Cloudy,Fair,Partly Cloudy,Mostly Cloudy,Partly Cloudy,Fair,Fair,Fair,Fair,Fair,Fair,Fair,Partly Cloudy,Mostly Cloudy,Mostly Cloudy,Mostly Cloudy,Mostly Cloudy,Mostly Cloudy,Mostly Cloudy,Mostly Cloudy,Mostly Cloudy,Mostly Cloudy,Partly Cloudy,Mostly Cloudy,Mostly Cloudy,Partly Cloudy,Partly Cloudy,Mostly Cloudy,Partly Cloudy,Fair,25.7839,80.2102
 Florida,Fort Lauderdale,Partly Cloudy,Partly Cloudy,Partly Cloudy,Partly Cloudy,Partly Cloudy,Partly Cloudy,Partly Cloudy,Partly Cloudy,Mostly Cloudy,Mostly Cloudy,Partly Cloudy,Partly Cloudy,Partly Cloudy,Partly Cloudy,Fair,Fair,Fair,Fair,Fair,Partly Cloudy,Partly Cloudy,Fair,Fair,Fair,Fair,Fair,Fair,Fair,Fair,Light Rain,Light Rain,Partly Cloudy,Mostly Cloudy,Mostly Cloudy,Mostly Cloudy,Mostly Cloudy,Mostly Cloudy,Mostly Cloudy,Mostly Cloudy,Mostly Cloudy,Mostly Cloudy,Mostly Cloudy,Fair,Partly Cloudy,Partly Cloudy,Fair,Fair,Fair,26.1412,80.1464
 Florida,Orlando,Mostly Cloudy,Mostly Cloudy,Mostly Cloudy,Cloudy,Partly Cloudy,Fair,Partly Cloudy,Mist,Mist,Mostly Cloudy,Mostly Cloudy,Partly Cloudy,Partly Cloudy,Partly Cloudy,Mostly Cloudy,Partly Cloudy,Light Rain,Heavy Rain,Cloudy,Light Rain,Cloudy,Mostly Cloudy,Cloudy,Cloudy,Cloudy,Cloudy,Cloudy,Light Rain,Windy,Cloudy,Mostly Cloudy,Mostly Cloudy,Cloudy,Mostly Cloudy,Cloudy,Cloudy,Cloudy,Mostly Cloudy,Mostly Cloudy,Mostly Cloudy,Cloudy,Cloudy,Cloudy,Cloudy,Cloudy,Cloudy,Cloudy,Cloudy,28.4772,81.3369
 Florida,Tampa,Mostly Cloudy,Mostly Cloudy,Mostly Cloudy,Mostly Cloudy,Mostly Cloudy,Mostly Cloudy,Mostly Cloudy,Fair,Fair,Fair,Fair,Fair,Fair,Fair,Fair,Fair,Fair,Partly Cloudy,Partly Cloudy,Partly Cloudy,Partly Cloudy,Partly Cloudy,Partly Cloudy,Mostly Cloudy,Mostly Cloudy,Mostly Cloudy,Mostly Cloudy,Mostly Cloudy,Mostly Cloudy,Partly Cloudy,Partly Cloudy,Mostly Cloudy,Mostly Cloudy,Mostly Cloudy,Partly Cloudy,Partly Cloudy,Partly Cloudy,Partly Cloudy,Mostly Cloudy,Mostly Cloudy,Partly Cloudy,Partly Cloudy,Mostly Cloudy,Mostly Cloudy,Cloudy,Cloudy,Cloudy,Mostly Cloudy,27.9942,82.4451
 Florida,Jacksonville,Mostly Cloudy,Mostly Cloudy,Mostly Cloudy,Mostly Cloudy,Mostly Cloudy,Mostly Cloudy,Mostly Cloudy,Mist,Mostly Cloudy,Mostly Cloudy,Mostly Cloudy,Cloudy,Cloudy,Cloudy,Cloudy,Cloudy,Cloudy,Cloudy,Cloudy,Cloudy,Cloudy,Cloudy,Cloudy,Cloudy,Mist,Mist,Mist,Mist,Mist,Mist,Fog,Mist,Mist,Mist,Cloudy,Cloudy,Cloudy,Cloudy,Cloudy,Cloudy,Cloudy,Light Drizzle,Light Drizzle,Light Drizzle,Light Drizzle,Light Drizzle,Light Drizzle,Light Drizzle,30.3322,81.6749
 Delaware,Wilmington,Fair,Fair,Fair,Fair,Fair,Fair,Fair,Fair,Fair,Fair,Fair,Fair,Fair,Partly Cloudy,Partly Cloudy,Fair,Cloudy,Cloudy,Cloudy,Cloudy,Cloudy,Cloudy,Partly Cloudy,Fair,Fair,Fair,Fair,Fair,Fair,Fair,Fair,Fair,Fair,Fair,Fair,Fair,Fair,Fair,Fair,Fair,Fair,Fair,Fair,Fair,Fair,Fair,Fair,Fair,34.21,77.8866
 Delaware,Newark,Fair,Fair,Fair,Fair,Fair,Fair,Fair,Fair,Fair,Fair,Fair,Fair,Fair,Partly Cloudy,Partly Cloudy,Fair,Cloudy,Cloudy,Cloudy,Cloudy,Cloudy,Cloudy,Partly Cloudy,Fair,Fair,Fair,Fair,Fair,Fair,Fair,Fair,Fair,Fair,Fair,Fair,Fair,Fair,Fair,Fair,Fair,Fair,Fair,Fair,Fair,Fair,Fair,Fair,Fair,40.7245,74.1725
 Delaware,Middletown,Fair,Fair,Fair,Fair,Fair,Fair,Fair,Fair,Fair,Fair,Fair,Fair,Fair,Partly Cloudy,Partly Cloudy,Fair,Cloudy,Cloudy,Cloudy,Cloudy,Cloudy,Cloudy,Partly Cloudy,Fair,Fair,Fair,Fair,Fair,Fair,Fair,Fair,Fair,Fair,Fair,Fair,Fair,Fair,Fair,Fair,Fair,Fair,Fair,Fair,Fair,Fair,Fair,Fair,Fair,39.5032,84.366
 Delaware,Dover,Fair,Fair,Fair,Fair,Fair,Fair,Fair,Fair,Fair,Fair,Fair,Fair,Fair,Partly Cloudy,Partly Cloudy,Fair,Cloudy,Cloudy,Cloudy,Cloudy,Cloudy,Cloudy,Partly Cloudy,Fair,Fair,Fair,Fair,Fair,Fair,Fair,Fair,Fair,Fair,Fair,Fair,Fair,Fair,Fair,Fair,Fair,Fair,Fair,Fair,Fair,Fair,Fair,Fair,Fair,39.161,75.5203
 Delaware,Milford,Fog,Fog,Fog,Mist,Mist,Fair,Mist,Fair,Fair,Fair,Fair,Fair,Fair,Fair,Fair,Fair,Fair,Fair,Fair,Fair,Fair,Fair,Fair,Fair,Fair,Fair,Fair,Fair,Fair,Fair,Fair,Fair,Fair,Fair,Fair,Fair,Fair,Fair,Fair,Fair,Fair,Fair,Fair,Fair,Fair,Fair,Fair,Fair,41.2256,73.0616
 Delaware,Frankford,Fog,Fog,Fog,Mist,Mist,Fair,Mist,Fair,Fair,Fair,Fair,Fair,Fair,Fair,Fair,Fair,Fair,Fair,Fair,Fair,Fair,Fair,Fair,Fair,Fair,Fair,Fair,Fair,Fair,Fair,Fair,Fair,Fair,Fair,Fair,Fair,Fair,Fair,Fair,Fair,Fair,Fair,Fair,Fair,Fair,Fair,Fair,Fair,38.5215,75.2342
 Michigan,Detroit,Cloudy,Cloudy,Fair,Fair,Fair,Fair,Fair,Fair,Fair,Fair,Fair,Fair,Fair,Mostly Cloudy,Cloudy,Partly Cloudy,Mostly Cloudy,Mostly Cloudy,Mostly Cloudy,Cloudy,Mostly Cloudy,Cloudy,Fair,Fair,Fair,Fair,Fair,Fair,Fair,Fair,Fair,Fair,Fair,Fair,Fair,Fair,Fair,Fair,Fair,Fair,Fair,Fair,Fair,Fair,Mostly Cloudy,Fair,Partly Cloudy,Cloudy,42.3834,83.1024
 Michigan,Ann Arbor,Cloudy,Cloudy,Fair,Fair,Fair,Fair,Fair,Fair,Fair,Fair,Fair,Fair,Fair,Fair,Partly Cloudy,Mostly Cloudy,Fair,Fair,Fair,Fair,Fair,Fair,Fair,Fair,Fair,Fair,Fair,Fair,Fair,Fair,Partly Cloudy,Mostly Cloudy,Fair,Mostly Cloudy,Fair,Fair,Fair,Fair,Fair,Fair,Fair,Fair,Partly Cloudy,Mostly Cloudy,Mostly Cloudy,Cloudy,Fair,Mostly Cloudy,42.2808,83.743
 Michigan,Grand Rapids,Partly Cloudy,Fair,Fair,Fair,Fair,Mostly Cloudy,Mostly Cloudy,Mostly Cloudy,Fair,Partly Cloudy,Fair,Fair,Mostly Cloudy,Mostly Cloudy,Mostly Cloudy,Mostly Cloudy,Mostly Cloudy,Mostly Cloudy,Mostly Cloudy,Mostly Cloudy,Partly Cloudy,Fair,Fair,Fair,Fair,Mostly Cloudy,Cloudy,Mostly Cloudy,Mostly Cloudy,Cloudy,Mostly Cloudy,Mostly Cloudy,Mostly Cloudy,Mostly Cloudy,Mostly Cloudy,Mostly Cloudy,Mostly Cloudy,Mostly Cloudy,Mostly Cloudy,Mostly Cloudy,Mostly Cloudy,Mostly Cloudy,Mostly Cloudy,Mostly Cloudy,Cloudy,Mostly Cloudy,Fair,Fair,42.962,85.6562
 Michigan,Cadillac,Cloudy,Mostly Cloudy,Cloudy,Cloudy,Cloudy,Cloudy,Cloudy,Cloudy,Cloudy,Cloudy,Cloudy,Cloudy,Cloudy,Cloudy,Cloudy,Cloudy,Cloudy,Cloudy,Cloudy,Mostly Cloudy,Partly Cloudy,Fair,Cloudy,Cloudy,Cloudy,Cloudy,Cloudy,Cloudy,Cloudy,Cloudy,Cloudy,Cloudy,Cloudy,Mostly Cloudy,Partly Cloudy,Partly Cloudy,Partly Cloudy,Mostly Cloudy,Cloudy,Cloudy,Mostly Cloudy,Cloudy,Cloudy,Cloudy,Mostly Cloudy,Cloudy,Mostly Cloudy,Fair,44.2494,85.4163
 Michigan,Traverse City,Cloudy,Mostly Cloudy,Cloudy,Cloudy,Cloudy,Cloudy,Cloudy,Cloudy,Cloudy,Cloudy,Cloudy,Cloudy,Cloudy,Cloudy,Cloudy,Cloudy,Cloudy,Cloudy,Cloudy,Mostly Cloudy,Partly Cloudy,Fair,Cloudy,Cloudy,Cloudy,Cloudy,Cloudy,Cloudy,Cloudy,Cloudy,Cloudy,Cloudy,Cloudy,Mostly Cloudy,Partly Cloudy,Partly Cloudy,Partly Cloudy,Mostly Cloudy,Cloudy,Cloudy,Mostly Cloudy,Cloudy,Cloudy,Cloudy,Mostly Cloudy,Cloudy,Mostly Cloudy,Fair,44.7547,85.6035
 Michigan,Owosso,Partly Cloudy,Fair,Fair,Fair,Fair,Fair,Mostly Cloudy,Cloudy,Fair,Fair,Fair,Fair,Fair,Fair,Mostly Cloudy,Fair,Mostly Cloudy,Mostly Cloudy,Cloudy,Fair,Fair,Fair,Fair,Fair,Fair,Mostly Cloudy,Fair,Cloudy,Cloudy,Fair,Cloudy,Cloudy,Mostly Cloudy,Mostly Cloudy,Cloudy,Cloudy,Fair,Fair,Fair,Mostly Cloudy,Mostly Cloudy,Fair,Fair,Fair,Mostly Cloudy,Mostly Cloudy,Cloudy,Cloudy,42.9955,84.176
 Massachusetts,Pepperell,Fair,Fair,Fair,Fair,Fair,Fair,Fair,Fair,Partly Cloudy,Fair,Partly Cloudy,Partly Cloudy,Partly Cloudy,Partly Cloudy,Fair,Fair,Fair,Partly Cloudy,Mostly Cloudy,Mostly Cloudy,Mostly Cloudy,Mostly Cloudy,Mostly Cloudy,Mostly Cloudy,Mostly Cloudy,Mostly Cloudy,Cloudy,Mostly Cloudy,Mostly Cloudy,Partly Cloudy,Fair,Fair,Fair,Fair,Fair,Fair,Fair,Fair,Fair,Fair,Fair,Fair,Fair,Fair,Fair,Fair,Fair,Fair,42.6654,71.5635
 Massachusetts,Fitchburg,Fair,Fair,Fair,Fair,Fair,Fair,Fair,Fair,Fair,Fair,Fair,Partly Cloudy,Fair,Fair,Fair,Fair,Fair,Fair,Fair,Fair,Fair,Fair,Fair,Fair,Fair,Fair,Fair,Fair,Fair,Fair,Fair,Fair,Fair,Fair,Fair,Partly Cloudy,Fair,Fair,Fair,Fair,Fair,Fair,Fair,Fair,Fair,Fair,Fair,Fair,42.5912,71.8156
 Massachusetts,Leominster,Fair,Fair,Fair,Fair,Fair,Fair,Fair,Fair,Fair,Fair,Fair,Partly Cloudy,Fair,Fair,Fair,Fair,Fair,Fair,Fair,Fair,Fair,Fair,Fair,Fair,Mostly Cloudy,Mostly Cloudy,Cloudy,Mostly Cloudy,Mostly Cloudy,Partly Cloudy,Fair,Fair,Fair,Fair,Fair,Partly Cloudy,Fair,Fair,Fair,Fair,Fair,Fair,Fair,Fair,Fair,Fair,Fair,Fair,42.5209,71.7717
 Massachusetts,Amherst,Fair,Partly Cloudy,Mostly Cloudy,Fair,Mostly Cloudy,Fair,Fair,Fair,Fair,Mostly Cloudy,Mostly Cloudy,Mostly Cloudy,Mostly Cloudy,Fair,Fair,Fair,Fair,Fair,Fair,Fair,Fair,Fair,Fair,Fair,Fair,Fair,Fair,Fair,Fair,Fair,Mostly Cloudy,Mostly Cloudy,Mostly Cloudy,Mostly Cloudy,Mostly Cloudy,Mostly Cloudy,Fair,Fair,Fair,Fair,Fair,Fair,Fair,Fair,Fair,Fair,Fair,Fair,42.3645,72.5069
 Massachusetts,Chicopee,Fair,Partly Cloudy,Mostly Cloudy,Fair,Mostly Cloudy,Fair,Fair,Fair,Fair,Mostly Cloudy,Mostly Cloudy,Mostly Cloudy,Mostly Cloudy,Fair,Fair,Fair,Fair,Fair,Fair,Fair,Fair,Fair,Fair,Fair,Fair,Fair,Fair,Fair,Fair,Fair,Mostly Cloudy,Mostly Cloudy,Mostly Cloudy,Mostly Cloudy,Mostly Cloudy,Mostly Cloudy,Fair,Fair,Fair,Fair,Fair,Fair,Fair,Fair,Fair,Fair,Fair,Fair,42.1764,72.5719
 Massachusetts,West Springfield,Fair,Partly Cloudy,Mostly Cloudy,Fair,Mostly Cloudy,Fair,Fair,Fair,Fair,Mostly Cloudy,Mostly Cloudy,Mostly Cloudy,Partly Cloudy,Fair,Fair,Fair,Fair,Fair,Fair,Fair,Fair,Fair,Fair,Fair,Fair,Fair,Fair,Fair,Fair,Fair,Mostly Cloudy,Mostly Cloudy,Mostly Cloudy,Mostly Cloudy,Mostly Cloudy,Mostly Cloudy,Fair,Fair,Fair,Fair,Fair,Fair,Fair,Fair,Fair,Fair,Fair,Fair,42.1253,72.6503
 Virginia,Alexandria,Fair,Fair,Fair,Fair,Fair,Partly Cloudy,Mostly Cloudy,Mostly Cloudy,Mostly Cloudy,Mostly Cloudy,Partly Cloudy,Fair,Fair,Partly Cloudy,Partly Cloudy,Fair,Fair,Fair,Fair,Fair,Fair,Fair,Fair,Fair,Fair,Partly Cloudy,Partly Cloudy,Cloudy,Cloudy,Cloudy,Cloudy,Cloudy,Cloudy,Mostly Cloudy,Cloudy,Cloudy,Partly Cloudy,Fair,Fair,Fair,Fair,Fair,Fair,Fair,Fair,Fair,Partly Cloudy,Partly Cloudy,38.8185,77.0861
 Virginia,Hampton,Fair,Fair,Fair,Fair,Fair,Fair,Fair,Fair,Fair,Fair,Fair,Fair,Fair,Fair,Fair,Fair,Fair,Fair,Fair,Fair,Fair,Fair,Fair,Fair,Mist,Mist,Mist,Mist,Mist,Mist,Mist,Fair,Fair,Fair,Fair,Fair,Fair,Fair,Fair,Fair,Fair,Fair,Fair,Partly Cloudy,Fair,Fair,Fair,Fair,37.0551,76.363
 Virginia,Fredericksburg,Fair,Fair,Fair,Fair,Fair,Partly Cloudy,Mostly Cloudy,Mostly Cloudy,Mostly Cloudy,Mostly Cloudy,Partly Cloudy,Fair,Fair,Partly Cloudy,Partly Cloudy,Fair,Fair,Fair,Fair,Fair,Fair,Fair,Fair,Fair,Fair,Partly Cloudy,Partly Cloudy,Cloudy,Cloudy,Cloudy,Cloudy,Cloudy,Cloudy,Mostly Cloudy,Cloudy,Cloudy,Partly Cloudy,Fair,Fair,Fair,Fair,Fair,Fair,Fair,Fair,Fair,Partly Cloudy,Partly Cloudy,38.2992,77.4872
 Virginia,Richmond,Fair,Fair,Fair,Partly Cloudy,Cloudy,Cloudy,Fair,Cloudy,Cloudy,Mostly Cloudy,Mostly Cloudy,Mostly Cloudy,Partly Cloudy,Partly Cloudy,Partly Cloudy,Partly Cloudy,Partly Cloudy,Partly Cloudy,Partly Cloudy,Partly Cloudy,Partly Cloudy,Partly Cloudy,Partly Cloudy,Mostly Cloudy,Mostly Cloudy,Mostly Cloudy,Mostly Cloudy,Mostly Cloudy,Partly Cloudy,Partly Cloudy,Partly Cloudy,Fair,Fair,Fair,Partly Cloudy,Partly Cloudy,Fair,Fair,Fair,Fair,Partly Cloudy,Partly Cloudy,Partly Cloudy,Partly Cloudy,Partly Cloudy,Partly Cloudy,Partly Cloudy,Mostly Cloudy,37.5295,77.4756
 Virginia,Virginia Beach,Partly Cloudy,Mostly Cloudy,Mostly Cloudy,Partly Cloudy,Fair,Fair,Fair,Fair,Fair,Fair,Fair,Fair,Fair,Fair,Fair,Fair,Fair,Fair,Fair,Fair,Fair,Fair,Fair,Fair,Fair,Fair,Fair,Fair,Mostly Cloudy,Cloudy,Mostly Cloudy,Cloudy,Cloudy,Cloudy,Cloudy,Cloudy,Cloudy,Partly Cloudy,Mostly Cloudy,Cloudy,Cloudy,Cloudy,Fair,Fair,Fair,Fair,Fair,Fair,36.7335,76.0435
 Virginia,Williamsburg,Fair,Fair,Fair,Fair,Fair,Fair,Fair,Fair,Fair,Fair,Fair,Fair,Fair,Fair,Fair,Fair,Fair,Fair,Fair,Fair,Fair,Fair,Fair,Fair,Mist,Mist,Mist,Mist,Mist,Mist,Mist,Fair,Fair,Fair,Fair,Fair,Fair,Fair,Fair,Fair,Fair,Fair,Fair,Partly Cloudy,Fair,Fair,Fair,Fair,37.2692,76.7076
 Ohio,Columbus,Fair,Fair,Fair,Fair,Fair,Fair,Fair,Fair,Fair,Partly Cloudy,Mostly Cloudy,Mostly Cloudy,Cloudy,Cloudy,Cloudy,Cloudy,Mostly Cloudy,Partly Cloudy,Fair,Fair,Fair,Fair,Fair,Fair,Fair,Fair,Fair,Partly Cloudy,Partly Cloudy,Fair,Fair,Mostly Cloudy,Partly Cloudy,Fair,Fair,Fair,Fair,Fair,Fair,Fair,Fair,Fair,Fair,Fair,Fair,Fair,Fair,Fair,39.9862,82.985
 Ohio,Cleveland,Mostly Cloudy,Cloudy,Light Rain,Cloudy,Cloudy,Cloudy,Cloudy,Cloudy,Cloudy,Cloudy,Mostly Cloudy,Cloudy,Partly Cloudy,Partly Cloudy,Partly Cloudy,Fair,Fair,Fair,Fair,Fair,Fair,Mostly Cloudy,Mostly Cloudy,Cloudy,Cloudy,Cloudy,Cloudy,Cloudy,Cloudy,Partly Cloudy,Fair,Mostly Cloudy,Mostly Cloudy,Fair,Fair,Fair,Fair,Fair,Fair,Fair,Fair,Fair,Fair,Fair,Fair,Fair,Fair,Fair,41.4767,81.6804
 Ohio,Cincinnati,Partly Cloudy,Mostly Cloudy,Partly Cloudy,Partly Cloudy,Fair,Fair,Fair,Fair,Fair,Fair,Fair,Partly Cloudy,Partly Cloudy,Fair,Partly Cloudy,Partly Cloudy,Partly Cloudy,Partly Cloudy,Fair,Mostly Cloudy,Mostly Cloudy,Partly Cloudy,Fair,Partly Cloudy,Cloudy,Cloudy,Cloudy,Partly Cloudy,Partly Cloudy,Partly Cloudy,Mostly Cloudy,Mostly Cloudy,Partly Cloudy,Fair,Fair,Fair,Fair,Fair,Fair,Fair,Fair,Fair,Fair,Fair,Fair,Fair,Fair,Fair,39.1413,84.5061
 Ohio,Toledo,Cloudy,Cloudy,Cloudy,Cloudy,Mostly Cloudy,Fair,Fair,Fair,Fair,Fair,Fair,Fair,Fair,Fair,Partly Cloudy,Fair,Fair,Mostly Cloudy,Fair,Fair,Fair,Fair,Fair,Fair,Fair,Fair,Fair,Fair,Fair,Fair,Fair,Fair,Fair,Fair,Fair,Fair,Fair,Fair,Fair,Fair,Fair,Fair,Fair,Fair,Fair,Fair,Fair,Fair,41.6639,83.5822
 Ohio,Akron,Fair,Fair,Fair,Fair,Partly Cloudy,Partly Cloudy,Mostly Cloudy,Mostly Cloudy,Mostly Cloudy,Cloudy,Cloudy,Cloudy,Cloudy,Cloudy,Mostly Cloudy,Mostly Cloudy,Mostly Cloudy,Fair,Fair,Fair,Fair,Fair,Fair,Fair,Partly Cloudy,Fair,Mostly Cloudy,Fair,Partly Cloudy,Fair,Partly Cloudy,Partly Cloudy,Partly Cloudy,Partly Cloudy,Partly Cloudy,Fair,Fair,Fair,Fair,Fair,Fair,Fair,Fair,Fair,Fair,Fair,Fair,Fair,41.0798,81.5219
 Ohio,Dayton,Fair,Fair,Fair,Fair,Fair,Fair,Fair,Fair,Fair,Fair,Fair,Mostly Cloudy,Mostly Cloudy,Mostly Cloudy,Partly Cloudy,Partly Cloudy,Fair,Fair,Fair,Fair,Mostly Cloudy,Mostly Cloudy,Mostly Cloudy,Mostly Cloudy,Mostly Cloudy,Mostly Cloudy,Mostly Cloudy,Mostly Cloudy,Cloudy,Mostly Cloudy,Mostly Cloudy,Mostly Cloudy,Fair,Fair,Fair,Fair,Fair,Fair,Fair,Fair,Fair,Fair,Fair,Fair,Fair,Fair,Fair,Fair,39.7797,84.1998
 Maine,Portland,Mostly Cloudy,Fair,Cloudy,Mostly Cloudy,Mostly Cloudy,Fair,Fair,Fair,Fair,Fair,Fair,Fair,Fair,Fair,Fair,Fair,Fair,Fair,Fair,Fair,Partly Cloudy,Fair,Fair,Fair,Fair,Fair,Fair,Fair,Fair,Fair,Fair,Fair,Fair,Fair,Partly Cloudy,Mostly Cloudy,Partly Cloudy,Fair,Fair,Fair,Fair,Fair,Fair,Partly Cloudy,Fair,Fair,Fair,Fair,45.5372,122.65
 Maine,Lewiston,Mostly Cloudy,Mostly Cloudy,Cloudy,Fair,Fair,Fair,Partly Cloudy,Cloudy,Mostly Cloudy,Partly Cloudy,Partly Cloudy,Cloudy,Windy,Mostly Cloudy,Partly Cloudy,Mostly Cloudy,Fair,Fair,Fair,Fair,Fair,Fair,Fair,Fair,Fair,Fair,Fair,Fair,Mostly Cloudy,Cloudy,Cloudy,Cloudy,Cloudy,Cloudy,Cloudy,Cloudy,Cloudy,Partly Cloudy,Fair,Cloudy,Fair,Mostly Cloudy,Fair,Fair,Fair,Fair,Fair,Fair,44.0915,70.1681
 Maine,Bangor,Cloudy,Cloudy,Mostly Cloudy,Cloudy,Partly Cloudy,Mostly Cloudy,Cloudy,Mostly Cloudy,Mostly Cloudy,Mostly Cloudy,Mostly Cloudy,Mostly Cloudy,Mostly Cloudy,Mostly Cloudy,Partly Cloudy,Mostly Cloudy,Cloudy,Cloudy,Cloudy,Mostly Cloudy,Mostly Cloudy,Fair,Fair,Fair,Fair,Fair,Fair,Fair,Mostly Cloudy,Mostly Cloudy,Mostly Cloudy,Mostly Cloudy,Mostly Cloudy,Mostly Cloudy,Mostly Cloudy,Mostly Cloudy,Mostly Cloudy,Cloudy,Cloudy,Mostly Cloudy,Mostly Cloudy,Fair,Fair,Fair,Fair,Fair,Fair,Fair,44.8322,68.7906
 Maine,Augusta,Mostly Cloudy,Mostly Cloudy,Cloudy,Fair,Fair,Fair,Partly Cloudy,Cloudy,Mostly Cloudy,Partly Cloudy,Partly Cloudy,Cloudy,Windy,Mostly Cloudy,Partly Cloudy,Mostly Cloudy,Fair,Fair,Fair,Fair,Fair,Fair,Fair,Fair,Fair,Fair,Fair,Fair,Mostly Cloudy,Cloudy,Cloudy,Cloudy,Cloudy,Cloudy,Cloudy,Cloudy,Cloudy,Partly Cloudy,Fair,Cloudy,Fair,Mostly Cloudy,Fair,Fair,Fair,Fair,Fair,Fair,33.3645,82.0708
 Maine,Waterville,Mostly Cloudy,Mostly Cloudy,Cloudy,Fair,Fair,Fair,Partly Cloudy,Cloudy,Mostly Cloudy,Partly Cloudy,Partly Cloudy,Cloudy,Windy,Mostly Cloudy,Partly Cloudy,Mostly Cloudy,Fair,Fair,Fair,Fair,Fair,Fair,Fair,Fair,Fair,Fair,Fair,Fair,Mostly Cloudy,Cloudy,Cloudy,Cloudy,Cloudy,Cloudy,Cloudy,Cloudy,Cloudy,Partly Cloudy,Fair,Cloudy,Fair,Mostly Cloudy,Fair,Fair,Fair,Fair,Fair,Fair,44.5441,69.6624
 Maine,Brunswick,Mostly Cloudy,Fair,Cloudy,Mostly Cloudy,Mostly Cloudy,Fair,Fair,Fair,Fair,Fair,Fair,Fair,Fair,Fair,Fair,Fair,Fair,Fair,Fair,Fair,Partly Cloudy,Fair,Fair,Fair,Fair,Fair,Fair,Fair,Fair,Fair,Fair,Fair,Fair,Fair,Partly Cloudy,Mostly Cloudy,Partly Cloudy,Fair,Fair,Fair,Fair,Fair,Fair,Partly Cloudy,Fair,Fair,Fair,Fair,31.145,81.474
 New York,Rochester,Cloudy,Cloudy,Cloudy,Cloudy,Mostly Cloudy,Mostly Cloudy,Cloudy,Mostly Cloudy,Mostly Cloudy,Mostly Cloudy,Mostly Cloudy,Mostly Cloudy,Mostly Cloudy,Partly Cloudy,Partly Cloudy,Fair,Fair,Fair,Fair,Fair,Fair,Fair,Fair,Partly Cloudy,Cloudy,Cloudy,Cloudy,Cloudy,Mostly Cloudy,Mostly Cloudy,Cloudy,Mostly Cloudy,Mostly Cloudy,Mostly Cloudy,Mostly Cloudy,Mostly Cloudy,Mostly Cloudy,Partly Cloudy,Partly Cloudy,Fair,Fair,Fair,Fair,Fair,Fair,Fair,Fair,Partly Cloudy,43.168,77.6162
 New York,Syracuse,Mostly Cloudy,Mostly Cloudy,Cloudy,Cloudy,Cloudy,Cloudy,Mostly Cloudy,Mostly Cloudy,Cloudy,Cloudy,Cloudy,Mostly Cloudy,Mostly Cloudy,Cloudy,Cloudy,Cloudy,Cloudy,Cloudy,Cloudy,Cloudy,Cloudy,Cloudy,Light Snow,Cloudy,Cloudy,Cloudy,Cloudy,Cloudy,Cloudy,Cloudy,Cloudy,Cloudy,Cloudy,Cloudy,Cloudy,Cloudy,Mostly Cloudy,Mostly Cloudy,Partly Cloudy,Partly Cloudy,Partly Cloudy,Partly Cloudy,Partly Cloudy,Fair,Fair,Fair,Fair,Fair,43.0409,76.1438
 New York,Cooperstown,Cloudy,Cloudy,Cloudy,Cloudy,Cloudy,Cloudy,Cloudy,Cloudy,Cloudy,Cloudy,Cloudy,Cloudy,Fair,Fair,Fair,Fair,Fair,Fair,Fair,Fair,Fair,Fair,Fair,Fair,Cloudy,Cloudy,Cloudy,Cloudy,Cloudy,Cloudy,Cloudy,Cloudy,Cloudy,Cloudy,Cloudy,Cloudy,Fair,Fair,Fair,Fair,Fair,Fair,Fair,Fair,Fair,Fair,Fair,Fair,42.6996,74.93
 New York,Buffalo,Cloudy,Cloudy,Cloudy,Mostly Cloudy,Mostly Cloudy,Partly Cloudy,Fair,Fair,Fair,Fair,Partly Cloudy,Partly Cloudy,Partly Cloudy,Fair,Fair,Fair,Partly Cloudy,Fair,Fair,Fair,Fair,Fair,Fair,Fair,Cloudy,Cloudy,Cloudy,Mostly Cloudy,Mostly Cloudy,Partly Cloudy,Fair,Fair,Fair,Fair,Partly Cloudy,Partly Cloudy,Partly Cloudy,Fair,Fair,Fair,Partly Cloudy,Fair,Fair,Fair,Fair,Fair,Fair,Fair,42.9016,78.8487
 New York,New York City,Mostly Cloudy,Mostly Cloudy,Partly Cloudy,Fair,Fair,Fair,Fair,Fair,Fair,Fair,Fair,Partly Cloudy,Mostly Cloudy,Mostly Cloudy,Mostly Cloudy,Partly Cloudy,Partly Cloudy,Fair,Fair,Fair,Fair,Fair,Fair,Fair,Fair,Fair,Fair,Fair,Fair,Partly Cloudy,Partly Cloudy,Partly Cloudy,Partly Cloudy,Mostly Cloudy,Mostly Cloudy,Mostly Cloudy,Mostly Cloudy,Partly Cloudy,Mostly Cloudy,Mostly Cloudy,Partly Cloudy,Partly Cloudy,Partly Cloudy,Fair,Fair,Fair,Fair,Fair,40.6943,73.9249
 New York,Troy,Mostly Cloudy,Mostly Cloudy,Cloudy,Cloudy,Cloudy,Mostly Cloudy,Partly Cloudy,Fair,Partly Cloudy,Mostly Cloudy,Mostly Cloudy,Mostly Cloudy,Mostly Cloudy,Partly Cloudy,Partly Cloudy,Fair,Partly Cloudy,Fair,Mostly Cloudy,Partly Cloudy,Mostly Cloudy,Cloudy,Cloudy,Cloudy,Cloudy,Cloudy,Cloudy,Cloudy,Cloudy,Cloudy,Cloudy,Cloudy,Cloudy,Mostly Cloudy,Mostly Cloudy,Mostly Cloudy,Partly Cloudy,Fair,Fair,Fair,Fair,Fair,Fair,Fair,Fair,Fair,Fair,Fair,42.5818,83.1457
 Pennsylvania,Pittsburgh,Fair,Fair,Fair,Fair,Fair,Fair,Fair,Fair,Fair,Partly Cloudy,Mostly Cloudy,Mostly Cloudy,Cloudy,Cloudy,Cloudy,Cloudy,Cloudy,Cloudy,Cloudy,Cloudy,Cloudy,Mostly Cloudy,Fair,Fair,Fair,Fair,Fair,Fair,Partly Cloudy,Mostly Cloudy,Partly Cloudy,Mostly Cloudy,Partly Cloudy,Partly Cloudy,Mostly Cloudy,Fair,Fair,Fair,Fair,Fair,Fair,Fair,Fair,Fair,Fair,Fair,Fair,Fair,40.4396,79.9762
 Pennsylvania,Philadelphia,Fair,Fair,Fair,Fair,Mostly Cloudy,Mostly Cloudy,Partly Cloudy,Partly Cloudy,Fair,Partly Cloudy,Partly Cloudy,Partly Cloudy,Partly Cloudy,Mostly Cloudy,Mostly Cloudy,Mostly Cloudy,Mostly Cloudy,Mostly Cloudy,Mostly Cloudy,Mostly Cloudy,Mostly Cloudy,Mostly Cloudy,Mostly Cloudy,Fair,Fair,Fair,Fair,Fair,Fair,Fair,Partly Cloudy,Partly Cloudy,Partly Cloudy,Mostly Cloudy,Mostly Cloudy,Mostly Cloudy,Mostly Cloudy,Partly Cloudy,Partly Cloudy,Partly Cloudy,Fair,Fair,Fair,Fair,Fair,Fair,Fair,Fair,40.0077,75.1339
 Pennsylvania,Scranton,Cloudy,Fair,Fair,Fair,Cloudy,Partly Cloudy,Fair,Fair,Fair,Fair,Mostly Cloudy,Cloudy,Cloudy,Cloudy,Mostly Cloudy,Fair,Fair,Fair,Fair,Fair,Mostly Cloudy,Fair,Fair,Fair,Fair,Fair,Fair,Fair,Fair,Partly Cloudy,Mostly Cloudy,Cloudy,Cloudy,Cloudy,Cloudy,Cloudy,Cloudy,Cloudy,Cloudy,Cloudy,Partly Cloudy,Fair,Fair,Fair,Fair,Fair,Fair,Fair,41.4044,75.6649
 Pennsylvania,Erie,Cloudy,Cloudy,Cloudy,Cloudy,Cloudy,Cloudy,Cloudy,Cloudy,Cloudy,Mostly Cloudy,Mostly Cloudy,Mostly Cloudy,Mostly Cloudy,Cloudy,Mostly Cloudy,Mostly Cloudy,Mostly Cloudy,Cloudy,Mostly Cloudy,Cloudy,Cloudy,Cloudy,Cloudy,Cloudy,Cloudy,Cloudy,Cloudy,Cloudy,Cloudy,Cloudy,Cloudy,Cloudy,Partly Cloudy,Mostly Cloudy,Partly Cloudy,Fair,Fair,Fair,Fair,Fair,Fair,Fair,Fair,Fair,Fair,Fair,Fair,Fair,42.1168,80.0733
 Pennsylvania,Allentown,Cloudy,Mostly Cloudy,Partly Cloudy,Fair,Fair,Fair,Mist,Fair,Fair,Fair,Fair,Fair,Mostly Cloudy,Cloudy,Mostly Cloudy,Cloudy,Cloudy,Cloudy,Cloudy,Cloudy,Cloudy,Cloudy,Mostly Cloudy,Fair,Fair,Fair,Fair,Fair,Fair,Fair,Fair,Fair,Fair,Fair,Mostly Cloudy,Cloudy,Mostly Cloudy,Mostly Cloudy,Fair,Fair,Fair,Fair,Fair,Fair,Fair,Fair,Fair,Fair,40.5961,75.4756
 Pennsylvania,State College,Cloudy,Mostly Cloudy,Mostly Cloudy,Partly Cloudy,Mostly Cloudy,Mostly Cloudy,Mostly Cloudy,Mostly Cloudy,Mostly Cloudy,Mostly Cloudy,Mostly Cloudy,Partly Cloudy,Mostly Cloudy,Cloudy,Mostly Cloudy,Mostly Cloudy,Cloudy,Cloudy,Cloudy,Cloudy,Cloudy,Cloudy,Mostly Cloudy,Fair,Fair,Fair,Fair,Fair,Fair,Fair,Fair,Partly Cloudy,Partly Cloudy,Partly Cloudy,Partly Cloudy,Fair,Fair,Fair,Fair,Fair,Fair,Fair,Fair,Fair,Fair,Fair,Fair,Fair,40.7934,77.86
 Rhode Island,Providence,Cloudy,Fair,Fair,Fair,Fair,Fair,Fair,Fair,Fair,Partly Cloudy,Mostly Cloudy,Partly Cloudy,Partly Cloudy,Partly Cloudy,Fair,Fair,Fair,Fair,Fair,Fair,Fair,Fair,Fair,Fair,Fair,Fair,Fair,Fair,Fair,Fair,Fair,Partly Cloudy,Mostly Cloudy,Mostly Cloudy,Mostly Cloudy,Mostly Cloudy,Mostly Cloudy,Partly Cloudy,Fair,Fair,Fair,Fair,Fair,Fair,Fair,Fair,Fair,Fair,41.823,71.4187
 Rhode Island,North Kingstown,Cloudy,Fair,Fair,Fair,Fair,Fair,Fair,Fair,Fair,Partly Cloudy,Mostly Cloudy,Partly Cloudy,Partly Cloudy,Partly Cloudy,Fair,Fair,Fair,Fair,Fair,Fair,Fair,Fair,Fair,Fair,Fair,Fair,Fair,Fair,Fair,Fair,Fair,Partly Cloudy,Mostly Cloudy,Mostly Cloudy,Mostly Cloudy,Mostly Cloudy,Mostly Cloudy,Partly Cloudy,Fair,Fair,Fair,Fair,Fair,Fair,Fair,Fair,Fair,Fair,39.0392,77.0723
 Rhode Island,Newport,Cloudy,Fair,Fair,Fair,Fair,Fair,Fair,Fair,Fair,Partly Cloudy,Mostly Cloudy,Partly Cloudy,Partly Cloudy,Partly Cloudy,Fair,Fair,Fair,Fair,Fair,Fair,Fair,Fair,Fair,Fair,Fair,Fair,Fair,Fair,Fair,Fair,Fair,Partly Cloudy,Mostly Cloudy,Mostly Cloudy,Mostly Cloudy,Mostly Cloudy,Mostly Cloudy,Partly Cloudy,Fair,Fair,Fair,Fair,Fair,Fair,Fair,Fair,Fair,Fair,41.4803,71.3205
 Rhode Island,Warwick,Cloudy,Fair,Fair,Fair,Fair,Fair,Fair,Fair,Fair,Partly Cloudy,Mostly Cloudy,Partly Cloudy,Partly Cloudy,Partly Cloudy,Fair,Fair,Fair,Fair,Fair,Fair,Fair,Fair,Fair,Fair,Fair,Fair,Fair,Fair,Fair,Fair,Fair,Partly Cloudy,Mostly Cloudy,Mostly Cloudy,Mostly Cloudy,Mostly Cloudy,Mostly Cloudy,Partly Cloudy,Fair,Fair,Fair,Fair,Fair,Fair,Fair,Fair,Fair,Fair,41.7062,71.4334
 Rhode Island,Woonsocket,Cloudy,Fair,Fair,Fair,Fair,Fair,Fair,Fair,Fair,Partly Cloudy,Mostly Cloudy,Partly Cloudy,Partly Cloudy,Partly Cloudy,Fair,Fair,Fair,Fair,Fair,Fair,Fair,Fair,Fair,Fair,Fair,Fair,Fair,Fair,Fair,Fair,Fair,Partly Cloudy,Mostly Cloudy,Mostly Cloudy,Mostly Cloudy,Mostly Cloudy,Mostly Cloudy,Partly Cloudy,Fair,Fair,Fair,Fair,Fair,Fair,Fair,Fair,Fair,Fair,42.001,71.4993
 Rhode Island,Westerly,Mostly Cloudy,Mostly Cloudy,Cloudy,Partly Cloudy,Fair,Fair,Fair,Fair,Fair,Fair,Fair,Mostly Cloudy,Cloudy,Partly Cloudy,Mostly Cloudy,Fair,Fair,Fair,Fair,Fair,Fair,Fair,Fair,Fair,Fair,Fair,Fair,Fair,Fair,Fair,Fair,Fair,Fair,Fair,Fair,Fair,Fair,Fair,Fair,Fair,Fair,Fair,Fair,Fair,Fair,Fair,Fair,Fair,41.3776,71.8273
 Vermont,Burlington,Cloudy,Cloudy,Mostly Cloudy,Cloudy,Cloudy,Cloudy,Cloudy,Cloudy,Cloudy,Cloudy,Cloudy,Cloudy,Cloudy,Cloudy,Cloudy,Cloudy,Cloudy,Cloudy,Cloudy,Cloudy,Cloudy,Cloudy,Cloudy,Cloudy,Cloudy,Cloudy,Cloudy,Mostly Cloudy,Cloudy,Cloudy,Cloudy,Cloudy,Mostly Cloudy,Cloudy,Cloudy,Cloudy,Cloudy,Cloudy,Cloudy,Cloudy,Cloudy,Cloudy,Cloudy,Cloudy,Cloudy,Cloudy,Cloudy,Cloudy,36.0758,79.4686
 Vermont,St Albans City,Cloudy,Cloudy,Fair,Fair,Partly Cloudy,Partly Cloudy,Cloudy,Cloudy,Cloudy,Cloudy,Cloudy,Cloudy,Cloudy,Cloudy,Cloudy,Cloudy,Cloudy,Cloudy,Cloudy,Cloudy,Cloudy,Cloudy,Cloudy,Cloudy,Cloudy,Cloudy,Cloudy,Cloudy,Cloudy,Cloudy,Cloudy,Cloudy,Cloudy,Cloudy,Cloudy,Cloudy,Cloudy,Cloudy,Cloudy,Cloudy,Mostly Cloudy,Fair,Fair,Fair,Fair,Fair,Fair,Fair,38.3769,81.8198
 Vermont,Winooski,Cloudy,Cloudy,Cloudy,Mostly Cloudy,Cloudy,Cloudy,Cloudy,Cloudy,Cloudy,Cloudy,Cloudy,Cloudy,Cloudy,Cloudy,Cloudy,Cloudy,Cloudy,Cloudy,Cloudy,Cloudy,Cloudy,Cloudy,Cloudy,Cloudy,Cloudy,Cloudy,Cloudy,Cloudy,Cloudy,Cloudy,Cloudy,Cloudy,Cloudy,Cloudy,Cloudy,Cloudy,Cloudy,Cloudy,Cloudy,Cloudy,Mostly Cloudy,Fair,Fair,Fair,Fair,Fair,Fair,Fair,44.4951,73.1843
 Vermont,Montpelier,Cloudy,Cloudy,Cloudy,Mostly Cloudy,Cloudy,Cloudy,Cloudy,Cloudy,Cloudy,Cloudy,Cloudy,Cloudy,Cloudy,Cloudy,Cloudy,Cloudy,Cloudy,Cloudy,Cloudy,Cloudy,Cloudy,Cloudy,Cloudy,Cloudy,Cloudy,Cloudy,Cloudy,Cloudy,Cloudy,Cloudy,Cloudy,Cloudy,Cloudy,Cloudy,Cloudy,Cloudy,Cloudy,Cloudy,Cloudy,mostly Cloudy,mostly Cloudy,Partly Cloudy,Fair,Fair,Mostly Cloudy,Cloudy,Mostly Cloudy,Partly Cloudy,44.2658,72.5717
 Vermont,Rutland,Cloudy,Light Rain,Cloudy,Cloudy,Cloudy,Cloudy,Cloudy,Cloudy,Cloudy,Cloudy,Cloudy,Cloudy,Mostly Cloudy,Partly Cloudy,Fair,Fair,Fair,Fair,Mostly Cloudy,Cloudy,Cloudy,Cloudy,Cloudy,Cloudy,Cloudy,Cloudy,Cloudy,Cloudy,Cloudy,Cloudy,Cloudy,Cloudy,Cloudy,Cloudy,Cloudy,Cloudy,Cloudy,Cloudy,Cloudy,Fair,Fair,Fair,Fair,Fair,Fair,Fair,Fair,Fair,43.6091,72.9782
 Vermont,Barre,Light Rain,Cloudy,Cloudy,Mostly Cloudy,Mostly Cloudy,Partly Cloudy,Cloudy,Cloudy,Cloudy,Cloudy,Cloudy,Cloudy,Cloudy,Cloudy,Cloudy,Cloudy,Cloudy,Cloudy,Cloudy,Cloudy,Cloudy,Cloudy,Cloudy,Cloudy,Cloudy,Cloudy,Cloudy,Cloudy,Cloudy,Cloudy,Cloudy,Cloudy,Cloudy,Cloudy,Cloudy,Cloudy,Cloudy,Cloudy,Cloudy,Cloudy,Cloudy,Fair,Fair,Mostly Cloudy,Fair,Fair,Fair,Fair,44.1997,72.5083
 Georgia,Atlanta,Light Rain,Light Rain,Light Rain,Rain,Rain,Rain,Light Rain,Light Rain,Rain,Light Rain,Light Rain,Light Rain,Light Rain,Light Rain,Light Drizzle,Light Drizzle,Light Rain,Light Drizzle,Light Drizzle,Light Rain,Light Rain,Light Rain,Light Drizzle,Light Drizzle,Light Drizzle,Light Drizzle,Light Rain,Cloudy,Cloudy,Cloudy,Cloudy,Cloudy,Cloudy,Cloudy,Cloudy,Cloudy,Cloudy,Cloudy,Cloudy,Cloudy,Cloudy,Cloudy,Mostly Cloudy,Cloudy,Cloudy,Mostly Cloudy,Mostly Cloudy,Mostly Cloudy,33.7627,84.4224
 Georgia,Savannah,Cloudy,Cloudy,Cloudy,Cloudy,Cloudy,Cloudy,Cloudy,Cloudy,Cloudy,Cloudy,Cloudy,Cloudy,Cloudy,Cloudy,Cloudy,Mostly Cloudy,Mostly Cloudy,Mostly Cloudy,Mostly Cloudy,Mostly Cloudy,Mostly Cloudy,Mostly Cloudy,Mostly Cloudy,Partly Cloudy,Cloudy,Cloudy,Cloudy,Cloudy,Cloudy,Light Rain,Light Rain,Cloudy,Cloudy,Drizzle,Light Drizzle,Light Drizzle,Cloudy,Cloudy,Cloudy,Cloudy,Cloudy,Cloudy,Cloudy,Cloudy,Cloudy,Cloudy,Cloudy,Cloudy,32.0281,81.1784
 Georgia,Augusta,Cloudy,Cloudy,Cloudy,Light Rain,Light Rain,Rain,Rain,Light Rain,Rain,Rain,Light Rain,Rain,Rain,Light Rain,Light Rain,Light Rain,Light Rain,Light Rain,Light Rain,Light Rain,Light Rain,Mist,Cloudy,Light Rain,Light Rain,Light Rain,Cloudy,Mist,Mist,Mist,Mist,Cloudy,Cloudy,Cloudy,Cloudy,Cloudy,Cloudy,Cloudy,Mostly Cloudy,Mostly Cloudy,Mostly Cloudy,Cloudy,Mostly Cloudy,Mostly Cloudy,Mostly Cloudy,Cloudy,Fair,Fog,33.3645,82.0708
 Georgia,Macon,Light Rain,Light Rain,Light Rain,Rain,Rain,Rain,Light Rain,Light Rain,Rain,Light Rain,Light Rain,Light Rain,Light Rain,Light Rain,Light Drizzle,Light Drizzle,Light Rain,Light Drizzle,Light Drizzle,Light Rain,Light Rain,Light Rain,Light Rain,Light Drizzle,Light Drizzle,Light Drizzle,Light Rain,Cloudy,Cloudy,Cloudy,Cloudy,Cloudy,Cloudy,Cloudy,Cloudy,Cloudy,Cloudy,Cloudy,Cloudy,Cloudy,Cloudy,Mostly Cloudy,Cloudy,Cloudy,Mostly Cloudy,Mostly Cloudy,Mostly Cloudy,Mostly Cloudy,32.8065,83.6974
 Georgia,Columbus,Light Rain,Rain,Light Rain,Rain,Heavy Rain,Light Rain,Light Rain,Light Rain,Mist,Mist,Cloudy,Light Rain,Cloudy,Cloudy,Cloudy,Cloudy,Cloudy,Cloudy,Cloudy,Light Rain,Mist,Cloudy,Cloudy,Cloudy,Cloudy,Cloudy,Cloudy,Cloudy,Cloudy,Cloudy,Cloudy,Cloudy,Cloudy,Cloudy,Cloudy,Cloudy,Cloudy,Cloudy,Cloudy,Cloudy,Mist,Cloudy,Mostly Cloudy,Cloudy,Cloudy,Cloudy,Cloudy,Cloudy,39.9862,82.985
 Georgia,Athens,Light Rain,Light Rain,Light Rain,Rain,Rain,Rain,Light Rain,Rain,Light Rain,Light Rain,Light Rain,Light Rain,Light Rain,Light Rain,Light Drizzle,Light Drizzle,Light Rain,Light Drizzle,Light Drizzle,Light Rain,Light Rain,Light Rain,Light Drizzle,Light Drizzle,Light Drizzle,Light Drizzle,Light Rain,Light Drizzle,Cloudy,Cloudy,Cloudy,Cloudy,Cloudy,Cloudy,Cloudy,Cloudy,Cloudy,Cloudy,Cloudy,Cloudy,Cloudy,Mostly Cloudy,Cloudy,Cloudy,Mostly Cloudy,Mostly Cloudy,Mostly Cloudy,Mostly Cloudy,33.9508,83.3689
 Kentucky,Frankfort,Fair,Fair,Fair,Fair,Fair,Fair,Fair,Fair,Fair,Fair,Fair,Fair,Fair,Fair,Fair,Fair,Fair,Fair,Fair,Fair,Fair,Fair,Fair,Fair,Fair,Fair,Fair,Fair,Fair,Fair,Fair,Fair,Fair,Fair,Fair,Fair,Fair,Fair,Fair,Fair,Fair,Fair,Fair,Fair,Fair,Fair,Fair,Cloudy,38.1924,84.8643
 Kentucky,Lexington,Fair,Fair,Fair,Fair,Fair,Fair,Fair,Fair,Fair,Fair,Fair,Fair,Fair,Fair,Fair,Fair,Fair,Fair,Fair,Fair,Fair,Fair,Fair,Fair,Fair,Fair,Fair,Fair,Fair,Fair,Fair,Fair,Fair,Fair,Fair,Fair,Fair,Fair,Fair,Fair,Fair,Fair,Fair,Fair,Fair,Fair,Fair,Mostly Cloudy,38.0423,84.4587
 Kentucky,Louisville,Fair,Fair,Fair,Fair,Partly Cloudy,Partly Cloudy,Fair,Fair,Fair,Fair,Fair,Fair,Fair,Fair,Fair,Fair,Fair,Partly Cloudy,Partly Cloudy,Partly Cloudy,Partly Cloudy,Fair,Fair,Partly Cloudy,Mostly Cloudy,Mostly Cloudy,Mostly Cloudy,Fair,Fair,Fair,Fair,Fair,Fair,Fair,Fair,Fair,Fair,Fair,Fair,Fair,Fair,Fair,Fair,Fair,Fair,Fair,Fair,Fair,38.1663,85.6485
 Kentucky,LaGrange,Fair,Fair,Fair,Fair,Partly Cloudy,Partly Cloudy,Fair,Fair,Fair,Fair,Fair,Fair,Fair,Fair,Fair,Fair,Fair,Partly Cloudy,Partly Cloudy,Partly Cloudy,Partly Cloudy,Fair,Fair,Partly Cloudy,Mostly Cloudy,Mostly Cloudy,Mostly Cloudy,Fair,Fair,Fair,Fair,Fair,Fair,Fair,Fair,Fair,Fair,Fair,Fair,Fair,Fair,Fair,Fair,Fair,Fair,Fair,Fair,Fair,33.0274,85.0384
 Kentucky,Cynthiana,Fair,Fair,Fair,Fair,Fair,Fair,Fair,Fair,Fair,Fair,Fair,Fair,Fair,Fair,Fair,Fair,Fair,Fair,Fair,Fair,Fair,Fair,Fair,Fair,Fair,Fair,Fair,Fair,Fair,Fair,Fair,Fair,Fair,Fair,Fair,Fair,Fair,Fair,Fair,Fair,Fair,Fair,Fair,Fair,Fair,Fair,Fair,Fair,38.386,84.2993
 Kentucky,Lawrenceburg,Fair,Fair,Fair,Fair,Fair,Fair,Fair,Fair,Fair,Fair,Fair,Fair,Fair,Fair,Fair,Fair,Fair,Fair,Fair,Fair,Fair,Fair,Fair,Fair,Fair,Fair,Fair,Fair,Fair,Fair,Fair,Fair,Fair,Fair,Fair,Fair,Fair,Fair,Fair,Fair,Fair,Fair,Fair,Fair,Fair,Fair,Fair,Cloudy,38.0332,84.9032
 West Virginia,Charleston,Mist,Mist,Mist,Mist,Mist,Mist,Mist,Mist,Fog,Mist,Mostlycloudy,Fair,Fair,Fair,PartlyCloudy,Partlycloudy,Fair,Fair,Fair,Fair,Fair,Fair,Fair,Fair,PartlyCloudy,PartlyCloudy,PartlyCloudy,PartlyCloudy,PartlyCloudy,PartlyCloudy,PartlyCloudy,Fair,Fair,Fair,Fair,Fair,Fair,Fair,Fair,Fair,Fair,Fair,Fair,Fair,Fair,Fair,Fair,Fair,32.8153,79.9628
 West Virginia,Bluefield,Fog,Mist,Fog,LightSnow,Fog,Fog,Fog,Fog,Fog,Fog,Mostlycloudy,PartlyCloudy,PartlyCloudy,Fair,Fair,Fair,Fair,Fair,Fair,Fair,Fair,Fair,Fair,Fair,Fair,Fair,Fair,Fair,Fair,Fair,PartlyCloudy,Fair,Fair,Fair,Fair,Fair,Fair,Fair,Fair,Fair,Fair,Fair,Fair,Fair,Fair,Fair,Fair,Fair,37.2608,81.2143
 West Virginia,Martinsburgs,Mist,Mist,Mist,Fog,Fog,Mist,Mist,Mist,Fair,Fair,Fair,Fair,Fair,Fair,Partlycloudy,Mostly Cloudy,Partlycloudy,Cloudy,Cloudy,Fair,Mostlycloudy,Cloudy,Mostlycloudy,Cloudy,Cloudy,Cloudy,Mostlycloudy,Fair,Mostlycloudy,Cloudy,Cloudy,Cloudy,Mostlycloudy,Fair,Fair,Fair,Fair,Fair,Fair,Fair,Fair,Fair,Fair,Fair,Fair,Fair,Fair,Fair,39.4582,77.9776
 West Virginia,Vienna,Fair,Fair,Fair,Fair,Fair,Patches of Fog,Patches of Fog,Patches of Fog,Fair,Fair,Fair,Fair,Fair,Fair,Mostlycloudy,Fair,Fair,Fair,Fair,Fair,Fair,Fair,Fair,Fair,Fair,Fair,Fair,Fair,Fair,Fair,Fair,Fair,Fair,Fair,Fair,Fair,Fair,Fair,Fair,Fair,Fair,Fair,Fair,Fair,Fair,Fair,Fair,Fair,38.8996,77.2597
 West Virginia,Summersville,Mist,Fog,Fog,Lightsnow,Fog,Fog,Fog,Fog,Fog,Fog,Mostlycloudy,PartlyCloudy,PartlyCloudy,Fair,Fair,Fair,Fair,Fair,Fair,Fair,Fair,Fair,Fair,Fair,Fair,Fair,Fair,Fair,Fair,Fair,PartlyCloudy,Fair,Fair,Fair,Fair,Fair,Fair,Fair,Fair,Fair,Fair,Fair,Fair,Fair,Fair,Fair,Fair,Fair,38.2865,80.841
 West Virginia,Ansted,Mist,Mist,Mist,Mist,Mist,Mist,Mist,Fog,Fog,Mist,Mostlycloudy,Fair,Fair,Fair,PartlyCloudy,Partlycloudy,Fair,Fair,Fair,Fair,Fair,Fair,Fair,PartlyCloudy,PartlyCloudy,partlyCloudy,PartlyCloudy,partlyCloudy,PartlyCloudy,partlyCloudy,partlyCloudy,Fair,Fair,Fair,Fair,Fair,Fair,Fair,Fair,Fair,Fair,Fair,Fair,Fair,Fair,Fair,Fair,Fair,38.1357,81.1037
 New Jersey,Newark,Mostly Cloudy,Mostly Cloudy,Fair,Fair,Fair,Fair,Fair,Fair,Fair,Fair,Fair,Fair,Partly Cloudy,Partly Cloudy,Partly Cloudy,Partly Cloudy,Partly Cloudy,Fair,Fair,Fair,Fair,Fair,Fair,Fair,Fair,Fair,Fair,Fair,Fair,Fair,Fair,Partly Cloudy,Mostly Cloudy,Mostly Cloudy,Mostly Cloudy,Mostly Cloudy,Mostly Cloudy,Mostly Cloudy,Mostly Cloudy,Partly Cloudy,Partly Cloudy,Mostly Cloudy,Partly Cloudy,Fair,Fair,Fair,Fair,Fair,40.7245,74.1725
 New Jersey,Trenton,Fair,Fair,Fair,Fair,Fair,Fair,Fair,Fair,Fair,Fair,Fair,Fair,Fair,Fair,Cloudy,Cloudy,Cloudy,Cloudy,Cloudy,Cloudy,Cloudy,Cloudy,Fair,Fair,Fair,Fair,Fair,Fair,Fair,Fair,Fair,Fair,Fair,Fair,Fair,Fair,Fair,Fair,Fair,Fair,Fair,Fair,Fair,Fair,Fair,Fair,Fair,Fair,40.2236,74.7641
 New Jersey,Elizabeth,Mostly Cloudy,Mostly Cloudy,Fair,Fair,Fair,Fair,Fair,Fair,Fair,Fair,Fair,Fair,Partly Cloudy,Partly Cloudy,Partly Cloudy,Partly Cloudy,Partly Cloudy,Fair,Fair,Fair,Fair,Fair,Fair,Fair,Fair,Fair,Fair,Fair,Fair,Fair,Fair,Partly Cloudy,Mostly Cloudy,Mostly Cloudy,Mostly Cloudy,Mostly Cloudy,Mostly Cloudy,Mostly Cloudy,Mostly Cloudy,Partly Cloudy,Partly Cloudy,Mostly Cloudy,Partly Cloudy,Fair,Fair,Fair,Fair,Fair,40.6657,74.1912
 New Jersey,New Brunswick,Mostly Cloudy,Mostly Cloudy,Fair,Fair,Fair,Fair,Fair,Fair,Fair,Fair,Fair,Fair,Partly Cloudy,Partly Cloudy,Partly Cloudy,Partly Cloudy,Partly Cloudy,Fair,Fair,Fair,Fair,Fair,Fair,Fair,Fair,Fair,Fair,Fair,Fair,Fair,Fair,Partly Cloudy,Mostly Cloudy,Mostly Cloudy,Mostly Cloudy,Mostly Cloudy,Mostly Cloudy,Mostly Cloudy,Mostly Cloudy,Partly Cloudy,Partly Cloudy,Mostly Cloudy,Partly Cloudy,Fair,Fair,Fair,Fair,Fair,40.487,74.445
 New Jersey,Camden,Fair,Fair,Fair,Fair,Mostly Cloudy,Mostly Cloudy,Partly Cloudy,Partly Cloudy,Fair,Partly Cloudy,Partly Cloudy,Partly Cloudy,Partly Cloudy,Mostly Cloudy,Mostly Cloudy,Mostly Cloudy,Mostly Cloudy,Mostly Cloudy,Mostly Cloudy,Mostly Cloudy,Mostly Cloudy,Mostly Cloudy,Mostly Cloudy,Fair,Fair,Fair,Fair,Fair,Fair,Fair,Partly Cloudy,Partly Cloudy,Partly Cloudy,Mostly Cloudy,Mostly Cloudy,Mostly Cloudy,Mostly Cloudy,Partly Cloudy,Partly Cloudy,Partly Cloudy,Fair,Fair,Fair,Fair,Fair,Fair,Fair,Fair,39.9362,75.1073
 New Jersey,Atlantic City,Fair,Fair,Fair,Fair,Fair,Mist,Fair,Fair,Fair,Fair,Fair,Fair,Fair,Fair,Mostly Cloudy,Partly Cloudy,Fair,Cloudy,Cloudy,Cloudy,Mostly Cloudy,Cloudy,Fair,Fair,Fair,Fair,Fair,Fair,Fair,Fair,Fair,Fair,Fair,Fair,Fair,Fair,Fair,Fair,Fair,Fair,Fair,Fair,Fair,Fair,Fair,Fair,Fair,Fair,39.3797,74.4527
 South Carolina,Columbia,Cloudy,Cloudy,Cloudy,Cloudy,Cloudy,Rain,Rain,Light Rain,Light Rain,Light Rain,Light Rain,Light Rain,Cloudy,Light Rain,Rain,Rain,Rain,Light Rain,Rain,Light Rain,Light Rain,Light Rain,Light Rain,Light Rain,Heavy Rain,Rain,Light Rain,Light Rain,Light Rain,Light Rain,Cloudy,Cloudy,Cloudy,Cloudy,Cloudy,Cloudy,Cloudy,Cloudy,Mostly Cloudy,Mostly Cloudy,Cloudy,Mostly Cloudy,Mostly Cloudy,Mostly Cloudy,Mostly Cloudy,Mostly Cloudy,Mostly Cloudy,Fair,34.0376,80.9037
 South Carolina,Greenville,Cloudy,Cloudy,Cloudy,Light Rain,Light Rain,Light Rain,Light Rain,Light Rain,Light Rain,Light Rain,Light Rain,Light Rain,Cloudy,Cloudy,Cloudy,Cloudy,Cloudy,Cloudy,Cloudy,Cloudy,Cloudy,Cloudy,Light Rain,Cloudy,Cloudy,Cloudy,Cloudy,Cloudy,Cloudy,Light Rain,Cloudy,Mostly Cloudy,Cloudy,Cloudy,Cloudy,Cloudy,Fair,Fair,Fair,Fair,Fair,Fair,Fair,Fair,Fair,Fair,Fair,Fair,34.8353,82.3647
 South Carolina,Sumter,Mostly Cloudy,Cloudy,Cloudy,Cloudy,Cloudy,Cloudy,Cloudy,Cloudy,Light Rain,Light Rain,Rain,Rain,Rain,Light Rain,Light Rain,Light Rain,Light Rain,Rain,Light Rain,Light Rain,Light Rain,Light Rain,Light Rain,Light Rain,Light Rain,Light Rain,Light Rain,Cloudy,Light Rain,Light Rain,Rain,Light Rain,Rain,Heavy Rain,Rain,Light Rain,Cloudy,Light Rain,Rain,Light Rain,Light Rain,Mist,Cloudy,Cloudy,Cloudy,Cloudy,Mostly Cloudy,Mostly Cloudy,33.9392,80.393
 South Carolina,Myrtle Beach,Cloudy,Cloudy,Cloudy,Cloudy,Cloudy,Cloudy,Cloudy,Cloudy,Cloudy,Light Rain,Light Rain,Light Rain,Light Rain,Light Rain,Light Rain,Light Rain,Light Rain,Light Rain,Light Rain,Light Rain,Cloudy,Light Rain,Cloudy,Cloudy,Cloudy,Cloudy,Cloudy,Cloudy,Cloudy,Light Rain,Light Rain,Light Rain,Light Rain,Light Rain,Light Rain,Light Rain,Light Rain,Cloudy,Light Rain,Cloudy,Cloudy,Cloudy,Cloudy,Cloudy,Cloudy,Cloudy,Cloudy,Cloudy,33.7096,78.8843
 South Carolina,Spartanburg,Cloudy,Cloudy,Cloudy,Light Rain,Light Rain,Light Rain,Light Rain,Light Rain,Light Rain,Light Rain,Light Rain,Light Rain,Cloudy,Cloudy,Cloudy,Cloudy,Cloudy,Cloudy,Cloudy,Cloudy,Cloudy,Cloudy,Light Rain,Cloudy,Cloudy,Cloudy,Cloudy,Cloudy,Cloudy,Light Rain,Cloudy,Mostly Cloudy,Cloudy,Cloudy,Cloudy,Cloudy,Fair,Fair,Fair,Fair,Fair,Fair,Fair,Fair,Fair,Fair,Fair,Fair,34.9437,81.9257
 South Carolina,Clemson,Fair,Fair,Fair,Fair,Fair,Mist,Fair,Fair,Fair,Fair,Fair,Fair,Fair,Fair,Fair,Fair,Fair,Fair,Mostly Cloudy,Fair,Fair,Partly Cloudy,Mostly Cloudy,Cloudy,Light Rain,Light Rain,Light Rain,Rain,Rain,Rain,Rain,Light Rain,Light Rain,Light Rain,Light Rain,Rain,Light Rain,Light Rain,Light Rain,Light Rain,Light Rain,Light Rain,Cloudy,Mostly Cloudy,Cloudy,Mostly Cloudy,Cloudy,Cloudy,34.6837,82.8124
 Maryland,Annapolis,Cloudy,Cloudy,Light Rain,Light Rain,Cloudy,Cloudy,Light Rain,Light Rain,Cloudy,Mostly Cloudy,Mostly Cloudy,Mostly Cloudy,Mostly Cloudy,Cloudy,Cloudy,Light Rain,Light Rain,Cloudy,Cloudy,Cloudy,Mostly Cloudy,Cloudy,Cloud,Cloudy,Mostly Cloudy,Mostly Cloudy,Cloudy,Cloudy,Cloudy,Cloudy,Mostly Cloudy,Mostly Cloudy,Mostly Cloudy,Mostly Cloudy,Mostly Cloudy,Cloudy,Cloudy,Light Rain,Cloudy,Cloudy,Cloudy,Cloudy,Light Rain,Light Rain,Light Rain,Light Rain,Light Rain,Light Rain,38.9706,76.5047
 Maryland,Ocean City,Cloudy,Cloudy,Light Rain,Light Rain,Cloudy,Cloudy,Light Rain,Light Rain,Cloudy,Mostly Cloudy,Mostly Cloudy,Mostly Cloudy,Mostly Cloudy,Cloudy,Cloudy,Light Rain,Light Rain,Cloudy,Cloudy,Cloudy,Mostly Cloudy,Cloudy,Cloud,Cloudy,Mostly Cloudy,Mostly Cloudy,Cloudy,Cloudy,Cloudy,Cloudy,Mostly Cloudy,Mostly Cloudy,Mostly Cloudy,Mostly Cloudy,Mostly Cloudy,Cloudy,Cloudy,Light Rain,Cloudy,Cloudy,Cloudy,Cloudy,Light Rain,Light Rain,Light Rain,Light Rain,Light Rain,Light Rain,39.2682,74.6019
 Maryland,Frederick,Cloudy,Cloudy,Cloudy,Mostly Cloudy,Cloudy,Light Rain,Light Rain,Cloudy,Mostly Cloudy,Light Rain,Light Rain,Cloudy,Cloudy,Light Rain,Mostly Cloudy,Light Rain,Cloudy,Cloudy,Mostly Cloudy,Partly Cloudy,Partly Cloudy,Partly Cloudy,Fair,Cloudy,Cloudy,Cloudy,Cloudy,Cloudy,Mostly Cloudy,Cloudy,Cloudy,Cloudy,Mostly Cloudy,Cloudy,Cloudy,Cloudy,Cloudy,Mostly Cloudy,Mostly Cloudy,Mostly Cloudy,Mostly Cloudy,Mostly Cloudy,Cloudy,Cloudy,Light Rain,Light Rain,Light Rain,Light Rain,39.4336,77.4141
 Maryland,Baltimore,Cloudy,Cloudy,Cloudy,Mostly Cloudy,Rain,Light Rain,Light Rain,Light Rain,Partly Cloudy,Partly Cloudy,Light Rain,Light Rain,Cloudy,Mostly Cloudy,Mostly Cloudy,Mostly Cloudy,Cloudy,Light Rain,Mostly Cloudy,Partly Cloudy,Cloudy,Fair,Partly Cloudy,Fair,Fair,Fair,Cloudy,Cloudy,Cloudy,Cloudy,Mostly Cloudy,Mostly Cloudy,Fair,Fair,Fair,Fair,Fair,Cloudy,Cloudy,Light Rain,Light Rain,Light Rain,Light Rain,Light Rain,Light Rain,Light Rain,Mostly Cloudy,Cloudy,39.3051,76.6144
 Maryland,Towson,Mostly Cloudy,Mostly Cloudy,Mostly Cloudy,Partly Cloudy,Partly Cloudy,Partly Cloudy,Mostly Cloudy,Shallow Fog,Mostly Cloudy,Mostly Cloudy,Mostly Cloudy,Partly Cloudy,Fair,Partly Cloudy,Partly Cloudy,Partly Cloudy,Partly Cloudy,Partly Cloudy,Partly Cloudy,Mostly Cloudy,Partly Cloudy,Fair,Fair,Fair,Fair,Partly Cloudy,Partly Cloudy,Mostly Cloudy,Mostly Cloudy,Mostly Cloudy,Cloudy,Mostly Cloudy,Mostly Cloudy,Mostly Cloudy,Mostly Cloudy,Cloudy,Mostly Cloudy,Partly Cloudy,Fair,Fair,Fair,Fair,Fair,Fair,Fair,Fair,Fair,Fair,39.3944,76.619
 Maryland,Hagerstown,Mist,Mist,Mist,Mist,Mist,Fog,Fog,Mist,Mist,Mist,Fair,Fair,Fair,Fair,Fair,Fair,Partly Cloudy,Mostly Cloudy,Partly Cloudy,Cloudy,Cloudy,Fair,Mostly Cloudy,Cloudy,Mostly Cloudy,Cloudy,Cloudy,Cloudy,Mostly Cloudy,Fair,Mostly Cloudy,Cloudy,Cloudy,Cloudy,Mostly Cloudy,Fair,Fair,Fair,Fair,Fair,Fair,Fair,Fair,Fair,Fair,Fair,Fair,Fair,39.6401,77.7217
" Washington, D.C.",Washington DC,Cloudy,Cloudy,Light Rain,Light Rain,Cloudy,Cloudy,Light Rain,Light Rain,Light Rain,Light Rain,Cloudy,Mostly Cloudy,Mostly Cloudy,Cloudy,Cloudy,Light Rain,Cloudy,Cloudy,Cloudy,Mostly Cloudy,Cloudy,Cloudy,Cloudy,Cloudy,Mostly Cloudy,Mostly Cloudy,Cloudy,Cloudy,Cloudy,Cloudy,Mostly Cloudy,Mostly Cloudy,Mostly Cloudy,Mostly Cloudy,Mostly Cloudy,Cloudy,Cloudy,Light Rain,Cloudy,Cloudy,Cloudy,Cloudy,Light Rain,Light Rain,Light Rain,Light Rain,Light Rain,Light Rain,38.9072,77.0369
 New Hampshire,Manchester,Mostly Cloudy,Mostly Cloudy,Fair,Mostly Cloudy,Mostly Cloudy,Mostly Cloudy,Mostly Cloudy,Mostly Cloudy,Mostly Cloudy,Mostly Cloudy,Partly Cloudy,Fair,Fair,Fair,Fair,Fair,Fair,Fair,Fair,Fair,Fair,Fair,Fair,Fair,Fair,Fair,Fair,Fair,Fair,Fair,Partly Cloudy,Partly Cloudy,Fair,Mostly Cloudy,Mostly Cloudy,Mostly Cloudy,Fair,Fair,Fair,Fair,Fair,Fair,Fair,Fair,Fair,Fair,Fair,Fair,42.9848,71.4447
 New Hampshire,Concord,Fair,Fair,Fair,Fair,Fair,Fair,Partly Cloudy,Partly Cloudy,Fair,Mostly Cloudy,Mostly Cloudy,Partly Cloudy,Mostly Cloudy,Partly Cloudy,Fair,Fair,Fair,Fair,Fair,Fair,Fair,Fair,Fair,Fair,Fair,Fair,Fair,Fair,Fair,Fair,Partly Cloudy,Partly Cloudy,Fair,Mostly Cloudy,Mostly Cloudy,Partly Cloudy,Fair,Fair,Fair,Fair,Fair,Fair,Fair,Fair,Fair,Fair,Fair,Fair,37.9722,122.0016
 New Hampshire,Nashua,Fair,Fair,Fair,Fair,Fair,Fair,Partly Cloudy,Partly Cloudy,Fair,Mostly Cloudy,Mostly Cloudy,Partly Cloudy,Fair,Mostly Cloudy,Mostly Cloudy,Partly Cloudy,Mostly Cloudy,Partly Cloudy,Partly Cloudy,Fair,Fair,Fair,Fair,Fair,Fair,Fair,Fair,Fair,Fair,Fair,Partly Cloudy,Partly Cloudy,Fair,Mostly Cloudy,Mostly Cloudy,Partly Cloudy,Fair,Fair,Fair,Fair,Fair,Fair,Fair,Fair,Fair,Fair,Fair,Fair,42.7491,71.491
 New Hampshire,Portsmouth,Mostly Cloudy,Partly Cloudy,Partly Cloudy,Partly Cloudy,Mostly Cloudy,Fair,Partly Cloudy,Fair,Fair,Fair,Fair,Fair,Fair,Fair,Fair,Fair,Fair,Fair,Fair,Fair,Fair,Fair,Fair,Fair,Fair,Fair,Fair,Fair,Fair,Fair,Partly Cloudy,Mostly Cloudy,Mostly Cloudy,Mostly Cloudy,Partly Cloudy,Mostly Cloudy,Mostly Cloudy,Fair,Fair,Fair,Fair,Fair,Fair,Fair,Fair,Fair,Fair,Fair,36.8468,76.354
 New Hampshire,Rochester,Mostly Cloudy,Partly Cloudy,Partly Cloudy,Partly Cloudy,Mostly Cloudy,Fair,Partly Cloudy,Fair,Fair,Fair,Fair,Fair,Fair,Fair,Fair,Fair,Fair,Fair,Fair,Fair,Fair,Fair,Fair,Fair,Fair,Fair,Fair,Fair,Fair,Fair,Partly Cloudy,Mostly Cloudy,Mostly Cloudy,Mostly Cloudy,Partly Cloudy,Mostly Cloudy,Fair,Fair,Fair,Fair,Fair,Fair,Fair,Fair,Fair,Fair,Fair,Fair,43.168,77.6162
 New Hampshire,Keene,Mostly Cloudy,Partly Cloudy,Partly Cloudy,Mostly Cloudy,Fair,Partly Cloudy,Fair,Fair,Fair,Fair,Fair,Fair,Fair,Fair,Fair,Fair,Fair,Fair,Fair,Fair,Fair,Fair,Fair,Fair,Fair,Fair,Fair,Fair,Fair,Fair,Mostly Cloudy,Mostly Cloudy,Mostly Cloudy,Mostly Cloudy,Partly Cloudy,Mostly Cloudy,Mostly Cloudy,Mostly Cloudy,Fair,Fair,Fair,Fair,Fair,Fair,Fair,Fair,Fair,Fair,42.9494,72.2997
 Indiana,South Bend,Cloudy,Cloudy,Cloudy,Cloudy,Cloudy,Cloudy,Cloudy,Cloudy,Mostly Cloudy,Mostly Cloudy,Mostly Cloudy,Mostly Cloudy,Partly Cloudy,Fair,Fair,Fair,Fair,Fair,Fair,Fair,Fair,Fair,Fair,Fair,Fair,Mostly Cloudy,Fair,Mostly Cloudy,Partly Cloudy,Partly Cloudy,Partly Cloudy,Partly Cloudy,Partly Cloudy,Partly Cloudy,Partly Cloudy,Fair,Fair,Fair,Fair,Fair,Fair,Fair,Fair,Fair,Fair,Fair,Fair,Fair,41.6764,86.252
 Indiana,Fortwayne,Cloudy,Cloudy,Cloudy,Cloudy,Cloudy,Cloudy,Cloudy,Mostly Cloudy,Mostly Cloudy,Mostly Cloudy,Mostly Cloudy,Mostly Cloudy,Fair,Fair,Fair,Fair,Fair,Fair,Fair,Fair,Fair,Fair,Fair,Fair,Fair,Mostly Cloudy,Fair,Mostly Cloudy,Cloudy,Partly Cloudy,Cloudy,Cloudy,Cloudy,Partly Cloudy,Cloudy,Fair,Fair,Fair,Fair,Fair,Fair,Fair,Fair,Fair,Fair,Fair,Fair,Fair,41.0886,85.1437
 Indiana,Indianapolis,Fair,Fair,Fair,Fair,Fair,Fair,Fair,Fair,Partly Cloudy,Fair,Partly Cloudy,Partly Cloudy,Partly Cloudy,Partly Cloudy,Fair,Fair,Fair,Fair,Partly Cloudy,Mostly Cloudy,Mostly Cloudy,Mostly Cloudy,Mostly Cloudy,Mostly Cloudy,Mostly Cloudy,Mostly Cloudy,Cloudy,Mostly Cloudy,Mostly Cloudy,Partly Cloudy,Fair,Fair,Fair,Fair,Fair,Fair,Fair,Fair,Fair,Fair,Fair,Fair,Fair,Fair,Fair,Fair,Fair,Fair,39.7771,86.1458
 Indiana,Lafayette,Fair,Fair,Fair,Fair,Fair,Fair,Fair,Fair,Partly Cloudy,Fair,Partly Cloudy,Partly Cloudy,Partly Cloudy,Partly Cloudy,Fair,Fair,Fair,Fair,Partly Cloudy,Mostly Cloudy,Mostly Cloudy,Mostly Cloudy,Mostly Cloudy,Mostly Cloudy,Fair,Fair,Fair,Fair,Fair,Fair,Partly Cloudy,Mostly Cloudy,Mostly Cloudy,Mostly Cloudy,Partly Cloudy,Mostly Cloudy,Mostly Cloudy,Fair,Fair,Fair,Fair,Fair,Fair,Fair,Fair,Fair,Fair,Fair,30.2084,92.0323
 Indiana,Bloomington,Fair,Fair,Fair,Fair,Fair,Fair,Fair,Fair,Partly Cloudy,Fair,Partly Cloudy,Partly Cloudy,Partly Cloudy,Partly Cloudy,Fair,Fair,Fair,Partly Cloudy,Mostly Cloudy,Mostly Cloudy,Mostly Cloudy,Mostly Cloudy,Mostly Cloudy,Mostly Cloudy,Mostly Cloudy,Mostly Cloudy,Cloudy,Mostly Cloudy,Mostly Cloudy,Partly Cloudy,Fair,Fair,Fair,Fair,Fair,Fair,Fair,Fair,Fair,Fair,Fair,Fair,Fair,Fair,Fair,Fair,Fair,Fair,40.4757,88.9703
 Indiana,Evansville,Mostly Cloudy,Mostly Cloudy,Mostly Cloudy,Mostly Cloudy,Mostly Cloudy,Partly Cloudy,Fair,Fair,Fair,Fair,Fair,Fair,Fair,Fair,Fair,Fair,Fair,Fair,Fair,Fair,Fair,Fair,Fair,Fair,Mostly Cloudy,Mostly Cloudy,Cloudy,Mostly Cloudy,Mostly Cloudy,Partly Cloudy,Fair,Fair,Fair,Fair,Fair,Fair,Fair,Fair,Fair,Fair,Fair,Fair,Fair,Fair,Fair,Fair,Fair,Fair,37.9881,87.5341
 North Carolina,Charlotte,Mostly Cloudy,Mostly Cloudy,Mostly Cloudy,Mostly Cloudy,Mostly Cloudy,Mostly Cloudy,Mostly Cloudy,Mostly Cloudy,Partly Cloudy,Partly Cloudy,Partly Cloudy,Partly Cloudy,Partly Cloudy,Partly Cloudy,Partly Cloudy,Mostly Cloudy,Mostly Cloudy,Mostly Cloudy,Partly Cloudy,Fair,Partly Cloudy,Mostly Cloudy,Mostly Cloudy,Mostly Cloudy,Cloudy,Cloudy,Light Rain,Cloudy,Cloudy,Cloudy,Light Rain,Mostly Cloudy,Mostly Cloudy,Mostly Cloudy,Mostly Cloudy,Mostly Cloudy,Mostly Cloudy,Mostly Cloudy,Mostly Cloudy,Fair,Fair,Partly Cloudy,Partly Cloudy,Fair,Fair,Mostly Cloudy,Mostly Cloudy,Mostly Cloudy,35.208,80.8304
 North Carolina,Asheville,Cloudy,Light Rain,Light Rain,Light Rain,Light Rain,Light Rain,Cloudy,Cloudy,Cloudy,Light Rain,Light Rain,Light Rain,Light Rain,Light Rain,Light Rain,Light Rain,Light Rain,Cloudy,Cloudy,Cloudy,Cloudy,Cloudy,Cloudy,Cloudy,Cloudy,Cloudy,Cloudy,Cloudy,Cloudy,Cloudy,Cloudy,Cloudy,Cloudy,Cloudy,Cloudy,Cloudy,Cloudy,Cloudy,Cloudy,Cloudy,Cloudy,Cloudy,Mostly Cloudy,Partly Cloudy,Fair,Fair,Fair,Fair,35.5704,82.5536
 North Carolina,Wilmington,Cloudy,Cloudy,Cloudy,Cloudy,Cloudy,Cloudy,Light Rain,Light Rain,Light Rain,Light Rain,Light Rain,Light Rain,Cloudy,Light Rain,Light Rain,Cloudy,Light Rain,Cloudy,Cloudy,Cloudy,Cloudy,Cloudy,Cloudy,Cloudy,Cloudy,Cloudy,Cloudy,Light Rain,Rain,Rain,Rain,Light Rain,Heavy Rain,Light Rain,Light Rain,Heavy Rain,Light Rain,Light Rain,Rain,Light Rain,Light Rain,Light Rain,Light Rain,Light Rain,Cloudy,Cloudy,Cloudy,Cloudy,34.21,77.8866
 North Carolina,Greensboro,Cloudy,Mostly Cloudy,Cloudy,Cloudy,Cloudy,Cloudy,Cloudy,Cloudy,Cloudy,Cloudy,Cloudy,Cloudy,Mostly Cloudy,Mostly Cloudy,Mostly Cloudy,Cloudy,Mostly Cloudy,Mostly Cloudy,Cloudy,Cloudy,Mostly Cloudy,Mostly Cloudy,Mostly Cloudy,Cloudy,Cloudy,Cloudy,Cloudy,Cloudy,Cloudy,Mostly Cloudy,Mostly Cloudy,Mostly Cloudy,Partly Cloudy,Mostly Cloudy,Mostly Cloudy,Partly Cloudy,Partly Cloudy,Partly Cloudy,Partly Cloudy,Partly Cloudy,Fair,Fair,Fair,Fair,Fair,Fair,Fair,Fair,36.0726,79.792
 North Carolina,Durham,Cloudy,Cloudy,Cloudy,Cloudy,Cloudy,Mostly Cloudy,Cloudy,Cloudy,Cloudy,Light Rain,Light Rain,Light Rain,Cloudy,Mostly Cloudy,Mostly Cloudy,Mostly Cloudy,Cloudy,Mostly Cloudy,Cloudy,Cloudy,Cloudy,Cloudy,Cloudy,Cloudy,Cloudy,Cloudy,Cloudy,Cloudy,Cloudy,Cloudy,Cloudy,Mostly Cloudy,Mostly Cloudy,Mostly Cloudy,Mostly Cloudy,Mostly Cloudy,Partly Cloudy,Fair,Partly Cloudy,Fair,Fair,Fair,Fair,Fair,Fair,Fair,Fair,Fair,35.9794,78.9031
 North Carolina,Raleigh,Cloudy,Cloudy,Cloudy,Cloudy,Cloudy,Mostly Cloudy,Cloudy,Cloudy,Cloudy,Light Rain,Light Rain,Light Rain,Cloudy,Mostly Cloudy,Mostly Cloudy,Mostly Cloudy,Cloudy,Mostly Cloudy,Cloudy,Cloudy,Cloudy,Cloudy,Cloudy,Cloudy,Cloudy,Cloudy,Cloudy,Cloudy,Cloudy,Cloudy,Cloudy,Mostly Cloudy,Mostly Cloudy,Mostly Cloudy,Mostly Cloudy,Mostly Cloudy,Partly Cloudy,Fair,Partly Cloudy,Fair,Fair,Fair,Fair,Fair,Fair,Fair,Fair,Fair,35.8325,78.6435
 Connecticut,Hartford,Fair,Fair,Fair,Fair,Fair,Fair,Fair,Fair,Fair,Fair,Fair,Mostly Cloudy,Mostly Cloudy,Mostly Cloudy,Mostly Cloudy,Cloudy,Cloudy,Mostly Cloudy,Mostly Cloudy,Cloudy,Mostly Cloudy,Mostly Cloudy,Mostly Cloudy,Fair,Fair,Fair,Fair,Fair,Fair,Fair,Mostly Cloudy,Mostly Cloudy,Mostly Cloudy,Mostly Cloudy,Mostly Cloudy,Mostly Cloudy,Fair,Fair,Fair,Fair,Fair,Fair,Fair,Fair,Fair,Fair,Fair,Fair,41.7661,72.6834
 Connecticut,Stamford,Fair,Fair,Fair,Fair,Fair,Fair,Fair,Fair,Fair,Fair,Fair,Mostly Cloudy,Mostly Cloudy,Mostly Cloudy,Mostly Cloudy,Mostly Cloudy,Mostly Cloudy,Mostly Cloudy,Mostly Cloudy,Fair,Fair,Fair,Fair,Fair,Fair,Fair,Fair,Mostly Cloudy,Mostly Cloudy,Mostly Cloudy,Fair,Fair,Fair,Fair,Partly Cloudy,Mostly Cloudy,Fair,Fair,Fair,Fair,Fair,Fair,Fair,Fair,Fair,Fair,Fair,Fair,41.1035,73.5583
 Connecticut,Danbury,Fair,Fair,Fair,Fair,Fair,Fair,Fair,Fair,Fair,Fair,Fair,Fair,Fair,Fair,Cloudy,Mostly Cloudy,Cloudy,Mostly Cloudy,Mostly Cloudy,Mostly Cloudy,Partly Cloudy,Fair,Fair,Fair,Fair,Fair,Fair,Fair,Partly Cloudy,Fair,Mostly Cloudy,Fair,Fair,Fair,Partly Cloudy,Partly Cloudy,Fair,Fair,Fair,Fair,Fair,Fair,Fair,Fair,Fair,Fair,Fair,Fair,41.4016,73.471
 Connecticut,Waterbury,Mostly Cloudy,Fair,Partly Cloudy,Fair,Fair,Fair,Fair,Fair,Fair,Fair,Partly Cloudy,Mostly Cloudy,Mostly Cloudy,Cloudy,Mostly Cloudy,Cloudy,Fair,Fair,Fair,Fair,Fair,Fair,Fair,Fair,Fair,Fair,Fair,Fair,Fair,Fair,Fair,Fair,Fair,Fair,Fair,Fair,Fair,Fair,Fair,Fair,Fair,Fair,Fair,Fair,Fair,Fair,Fair,Fair,41.5583,73.0361
 Connecticut,Bridgeport,Fair,Fair,Fair,Fair,Fair,Fair,Fair,Fair,Fair,Fair,Fair,Fair,Fair,Fair,Partly Cloudy,Cloudy,Cloudy,Cloudy,Cloudy,Mostly Cloudy,Fair,Fair,Fair,Fair,Fair,Fair,Fair,Fair,Fair,Fair,Fair,Fair,Fair,Fair,Fair,Fair,Fair,Fair,Fair,Fair,Fair,Fair,Fair,Fair,Fair,Fair,Fair,Fair,41.1918,73.1953
 Connecticut,New Haven,Mostly Cloudy,Fair,Partly Cloudy,Fair,Fair,Fair,Fair,Fair,Fair,Fair,Partly Cloudy,Mostly Cloudy,Mostly Cloudy,Cloudy,Mostly Cloudy,Cloudy,Fair,Fair,Fair,Fair,Fair,Fair,Fair,Fair,Fair,Fair,Fair,Fair,Fair,Fair,Fair,Fair,Fair,Fair,Fair,Fair,Fair,Fair,Fair,Fair,Fair,Fair,Fair,Fair,Fair,Fair,Fair,Fair,41.3112,72.9246
 Massachusetts,Boston,Mostly Cloudy,Mostly Cloudy,Mostly Cloudy,Partly Cloudy,Fair,Fair,Fair,Fair,Fair,Partly Cloudy,Partly Cloudy,Fair,Fair,Fair,Fair,Fair,Fair,Fair,Fair,Fair,Fair,Fair,Fair,Fair,Fair,Fair,Fair,Fair,Fair,Fair,Partly Cloudy,Partly Cloudy,Mostly Cloudy,Mostly Cloudy,Partly Cloudy,Mostly Cloudy,Mostly Cloudy,Partly Cloudy,Fair,Fair,Fair,Fair,Fair,Fair,Fair,Fair,Fair,Fair,42.3601,71.0589
